stop_id,stop_name,lat,lng
348,koti,17.38471,78.48426
301,Abids GPO,17.38781,78.47613
487,Annapurna Hotel,17.38903,78.4734
302,Nampally Public Garden,17.39499,78.47036
303,Assembly,17.39992,78.47028
304,Lakdikapool,17.40322,78.46536
305,Mahavir Hospital JNTU,17.40333,78.45635
306,Masab Tank,17.40429,78.45185
307,Pension Office,17.40785,78.45095
308,Banjara Hills Road No 12,17.40821,78.43877
309,Durga Enclave/V R Building,17.41204,78.4318
488,ACB Office,17.4127,78.4292
310,MLA colony,17.41405,78.42415
311,Apollo,17.41805,78.41336
312,Journalist Colony,17.42133,78.41073
334,Jubilee Hills Checkpost,17.42869,78.41307
314,Usha kiran,17.42979,78.41068
332,Peddamma Temple,17.43111,78.4074
331,Madhapur PS,17.43944,78.39594
317,Madhapur petrol bunk,17.44093,78.39126
318,Madhapur Image Hospital,17.44648,78.38487
319,Hitech Shilparamam,17.45238,78.38021
320,Hitex Kaman,17.45547,78.37764
321,Satyam/Jayabheri,17.45771,78.37153
322,Kothaguda X Road,17.45951,78.36616
323,Kondapur,17.46498,78.36409
398,lingampally,17.495,78.31592
906,lingampally railway station,17.48287,78.32048
908,alind,17.47653,78.32493
1061,hcu depot,17.46875,78.3311
909,hcu main gate,17.46162,78.33612
910,masjid banda,17.45999,78.33768
1064,gachibowli stadium,17.45163,78.34518
911,iiit,17.44493,78.35318
913,indira nagar,17.44101,78.36046
915,gachibowli X road,17.43836,78.36443
916,telecom nagar,17.43528,78.36809
917,nccb,17.428,78.37538
918,khajaguda x road,17.42253,78.38252
919,darga,17.41309,78.39499
1067,sheikpetnala,17.40611,78.4039
920,brindavan colony,17.40345,78.40937
802,tolichowki,17.39863,78.41693
803,nanal nagar,17.39633,78.42721
1065,rethibowli,17.39623,78.4306
804,mehdipatnam,17.39505,78.44017
816,sd hospital,17.39873,78.44518
817,nmdc,17.39888,78.4497
352,Mahavir Hospital,17.40287,78.4582
492,bjr college,17.40477,78.46104
344,telephone bhavan,17.40714,78.4663
883,secretariat,17.40807,78.47198
884,liberty,17.40635,78.47817
885,himayat nagar,17.40328,78.48265
888,narayanaguda,17.4003,78.49059
956,barkathapura,17.39593,78.49717
447,fever hospital,17.39553,78.50222
924,tilak nagar,17.39421,78.5083
887,6 number,17.39174,78.51236
929,amberpet,17.39234,78.51688
930,amberpet gandhi statue,17.3927,78.51962
931,irani hotel,17.39401,78.52313
932,t v studio,17.39653,78.52933
933,ramanthapur colony,17.39793,78.53267
934,ramanthapur public school,17.39956,78.53708
935,church,17.40117,78.54349
936,modern bakery,17.40137,78.54997
937,uppal x road,17.40159,78.55916
938,uppal gandhi statue,17.40162,78.56558
939,uppal bus stop,17.40165,78.56838
1040,JBS,17.44746,78.49645
2105,YMca,17.44311,78.49896
813,sangeeth,17.44116,78.50558
1574,secunderabaD,17.43695,78.50511
1398,rethifile busstation,17.43478,78.50508
1399,chilkalguda,17.43183,78.50565
1400,bhoiguda,17.42738,78.50205
1401,gandhi hospital,17.42396,78.50192
1208,Musheerabad Police station,17.4188,78.49984
1209,Raja Delux,17.41514,78.49816
1214,RTC X ROAD,17.40862,78.49762
368,rtc x road / Bus Bhavan,17.40626,78.49846
927,vst,17.40478,78.50243
1402,ccs office,17.40388,78.50478
1329,Nallakunta,17.39884,78.5059
448,Fever Hospital,17.39509,78.50185
1568,tourist hotel,17.39093,78.49645
1466,Kachiguda station,17.39058,78.49894
1403,nimboli adda,17.38444,78.4938
1580,CHaderghat,17.38134,78.49276
749,MGBS,17.37774,78.48277
1583,AFzalgunj,17.37294,78.47673
1404,madina,17.36848,78.4738
1894,CITY college,17.36793,78.46838
1406,puranapool,17.36491,78.45706
1407,bahadurpura,17.35863,78.4551
1408,zoo park,17.35058,78.45243
1409,tad bun,17.34533,78.45085
1410,water filter,17.34049,78.45063
1411,hasan nagar,17.33684,78.44956
1413,hasan nagar x road,17.33489,78.44341
1414,npa,17.33135,78.43818
1415,shivarampally x road,17.32405,78.43363
1417,aramghar x road,17.32145,78.43259
1418,durga nagar,17.31819,78.4374
1419,Katedan,17.31191,78.4384
1420,madhuban colony,17.30135,78.43795
2474,Sriram colony,17.29322,78.44179
343,lakdikapool,17.40593,78.46313
345,assembly/air,17.40216,78.46871
501,nizam college,17.39776,78.47527
346,Abids Grammer School,17.39334,78.47627
347,central Bank,17.38545,78.48142
354,Chikkadapalli,17.40201,78.49511
355,Narayanaguda,17.39883,78.49402
356,YMCA,17.39591,78.49085
1210,Sultana Bazar,17.38793,78.48727
469,koti womens college,17.3849,78.48817
470,chaderghat,17.37729,78.494
471,nalgonda X road,17.3754,78.49833
472,malakpet gunj,17.37339,78.50453
473,malakpet super bazaar,17.37247,78.50939
475,moosharambagh,17.36972,78.51615
2141,Dilsukh Nagar Depot,17.36962,78.52541
787,Secunderabad,17.43451,78.50125
1586,clock tower,17.44053,78.49793
1230,Bata,17.43563,78.49382
1589,Bible house,17.4309,78.49264
1169,boats club,17.42852,78.48835
1370,d b r mills,17.42187,78.48493
1682,Mini tankbund,17.40976,78.47594
894,Secretariat,17.40764,78.47116
895,AG office,17.40594,78.4673
342,ac guard,17.40279,78.45826
800,NMDC,17.39876,78.44937
761,SD Hospital,17.39798,78.44341
762,Mehdipatnam,17.39473,78.43841
2244,REthibowli,17.39506,78.43131
981,jyothi Nagar,17.38245,78.42978
2245,Ring road,17.37648,78.42952
3822,attapur x road,17.37023,78.42947
982,hyderguda x road ,17.36348,78.4283
983,upparpally x road,17.3551,78.42185
2247,Dairy Farm,17.3451,78.41619
4097,NPPTi,17.34252,78.41457
2452,Rajendranagar Depot,17.33504,78.41037
2458,budvel,17.33325,78.4097
3828,extension,17.32995,78.40941
2454,Rajendra Nagar,17.32183,78.40176
300,medical college,17.38299,78.48285
1439,cbs,17.37819,78.48219
1379,High Court,17.37023,78.47551
2471,kishanbagh,17.35921,78.44326
2469,9 number x road,17.35656,78.43831
2467,pahadi,17.35186,78.42896
2465,chinthalmet,17.35202,78.42169
2140,UPPAL x road,17.40095,78.56045
955,Saraswathi nagar,17.39449,78.55935
957,Nagole,17.37571,78.55788
1797,Snehapuri colony,17.36884,78.55743
958,Alkapuri,17.36388,78.55743
3795,rajiv gandhi Nagar,17.35967,78.55775
1798,Kamineni,17.35244,78.55563
959,LB NAgar,17.34578,78.55033
960,Sagar Ring Road,17.3415,78.54605
1761,tkr kaman,17.33734,78.53571
961,Gayathri Nagar,17.33751,78.5313
3793,manda mallamma,17.33967,78.52344
962,Champapet X Road,17.34229,78.5151
1820,Owaisi Hospital ,17.34319,78.50648
963,Pisalbanda,17.34,78.50177
1850,drdl,17.33706,78.49708
1723,Baba Nagar,17.33178,78.49025
1718,Pool Bagh,17.33007,78.48589
3799,Dlrl,17.32871,78.48274
964,CHandrayanagutta,17.32753,78.4792
965,Hashamabad,17.32208,78.46879
966,BAndlaguda,17.31635,78.46633
3801,Moghal College,17.31437,78.45913
3800,Palle Cheruvu,17.31512,78.45796
967,Mailardev pally,17.31444,78.44377
1424,Durga Nagar,17.31789,78.43747
968,Aramghar,17.32254,78.43049
969,Weaker Section Colony,17.33274,78.42644
2249,laldabha,17.3419,78.42255
2250,dairy farm,17.34568,78.41564
970,Upparpally X Road,17.35643,78.42247
971,Hyderguda X Road,17.36445,78.42809
2246,ring road,17.37721,78.42919
972,Jyothi Nagar,17.38286,78.42932
1556,Rethibowli,17.39566,78.4307
1183,Bandlaguda X Road,17.35972,78.38798
1184,Sun City,17.36487,78.39548
3831,sairam nagar,17.36851,78.40081
3839,T K bridge,17.37124,78.40436
3830,bapu nagar,17.37438,78.41789
1186,Lunger House,17.37814,78.4206
763,Nanal nagar,17.39598,78.42742
1683,mini tankbund,17.41002,78.47597
1380,D B R Mills,17.42263,78.48529
1381,Boats Club,17.42898,78.48897
1168,bible house,17.43101,78.49225
1227,bata,17.4352,78.49327
2098,Clock Tower,17.44166,78.49899
2096,Sangeeth,17.44126,78.50349
2099,Mother Teresa,17.43797,78.5046
815,secunderabad,17.43463,78.50146
476,dilsukh nagar ,17.36863,78.52499
496,chaitanyapuri,17.36856,78.53276
477,kothapet,17.36836,78.53709
2149,b j bhavan,17.36577,78.5429
3820,telephone colony,17.36801,78.54788
2147,r k puram,17.36809,78.54998
1817,snehapuri colony ,17.36906,78.55718
995,nagole,17.37743,78.55763
996,saraswathi nagar,17.3964,78.55911
997,uppal x Road,17.40227,78.55901
1819,survey of india ,17.40583,78.55541
1821,ngri ,17.41487,78.54583
1385,habsiguda,17.42121,78.53942
1824,tarnaka ,17.42628,78.53133
1285,Mettuguda,17.43407,78.52089
1286,Alagadda Baavi,17.43519,78.51428
2082,Chilkalguda,17.43316,78.50713
870,Film Nagar,17.41405,78.40761
336,apollo,17.41846,78.41309
1055,jubilee hills checkpost,17.42697,78.41573
974,venkatagiri,17.43086,78.42086
975,krishna nagar,17.43262,78.42624
942,Yousufguda Checkpost,17.43688,78.4282
977,yousufguda basti,17.43667,78.43215
979,kalyan nagar,17.44432,78.43308
877,sr nagar,17.44026,78.44251
1056,mythrivanam,17.43715,78.44391
1062,Ameerpet,17.43458,78.44797
1058,lalbungalow,17.43573,78.45191
1059,greenlands,17.43553,78.45484
809,shyamlal,17.44436,78.46142
810,prakash nagar,17.44422,78.47192
1212,Paradise X Road,17.44358,78.48673
812,patnY,17.44316,78.49619
578,jubilee hills checkpost,17.42664,78.41652
405,lv prasad,17.42367,78.42744
373,tv9/masjeed,17.42722,78.43943
490,andhrajyothi,17.42729,78.44509
806,panjagutta,17.42665,78.4513
808,begumpet public school,17.44251,78.4587
859,shoppers stop,17.44508,78.4654
860,police line,17.44373,78.47615
861,anand theater,17.44353,78.4826
811,paradise,17.44338,78.48793
3843,FLAG STONE TOWERS,17.42189,78.33239
2961,infotech,17.41954,78.33623
1269,ICICI,17.42211,78.338
1270,Wipro circle,17.42606,78.34056
1271,Infosys,17.43681,78.34723
1558,Hitech X Road,17.42843,78.37466
503,raheja mindspace,17.44146,78.37708
419,cyber peral,17.4472,78.37793
410,hitech City,17.45087,78.38186
2242,Image Hospital,17.44659,78.38512
329,madhapur petrol bunk,17.44111,78.39139
316,madhapur ps,17.43933,78.39641
315,peddamma temple,17.432,78.40704
1287,alagadda baavi,17.43552,78.51428
1288,mettuguda,17.4343,78.52111
1793,Tarnaka,17.42582,78.53287
1388,Habsiguda,17.42127,78.53981
1794,NGRI,17.41491,78.54645
1795,Survey of india,17.40447,78.55707
953,UPPAL X ROAD,17.40277,78.55875
442,Lb Nagar,17.35008,78.54759
1090,Ibrahimpatnam Busstand,17.19121,78.64716
1091,Ibrahimpatnam Old Busstand,17.19709,78.65013
1144,upparguda x road,17.20477,78.62003
1092,Sheriguda,17.20872,78.6195
1093,Sri Indu College,17.2136,78.6111
1094,Mangalpally X Road,17.21487,78.60522
1095,Koheda X Road ,17.21822,78.60196
1096,Bonguluru X Road,17.23146,78.58881
1097,Manneguda X Road,17.2554,78.58546
1098,Raganna Guda X Road,17.26294,78.58607
1099,Turkayamjal X Road,17.27327,78.5888
1100,Injapur,17.2985,78.5827
1101,Gurramguda X Road,17.30461,78.57055
1102,Sagar complex,17.31295,78.5633
1103,BN Reddy Nagar,17.32178,78.55998
1104,Hastinapuram South,17.32706,78.55606
3881,HASTINAPURAM CENTRAL,17.32855,78.55467
1105,Hastinapuram north,17.32945,78.55371
1107,Omkar Nagar,17.33723,78.54992
1108,Sagar X Road,17.34179,78.54704
1109,Bairamalguda,17.34395,78.54105
1110,Karmanghat,17.34412,78.53268
1111,Green Park Colony,17.34516,78.52556
1112,RTC Colony,17.34704,78.51914
1113,Champapet,17.34866,78.51495
1114,I S SADAN,17.35265,78.5065
1115,Saidabad,17.35937,78.50471
1872,jaihind hotel,17.3599,78.50473
1116,government Press,17.3678,78.50158
1118,Nalgonda x road,17.37461,78.49824
1120,ChaderGhat,17.37717,78.4925
485,Dilsukh Nagar,17.36852,78.52475
464,TV TOWER,17.36949,78.51625
465,Malakpet Super Bazaar,17.37191,78.51014
466,Chermas,17.37296,78.5059
467,Nalgonda X Road,17.37475,78.4989
468,Chaderghat,17.3773,78.49192
495,Koti Womens College,17.38475,78.48753
497,Kondapur,17.46659,78.36715
376,Hafeezpet  ,17.48633,78.35781
377,Allwyn X Road,17.49323,78.35175
378,Deepthisri Nagar/ madinaguda,17.49502,78.34029
379,Gangaram,17.49497,78.33037
380,Chanda Nagar,17.49499,78.32286
381,LingamPally,17.49499,78.31719
451,Jyothi nagar,17.49746,78.31415
452,Ashok nagar,17.50423,78.30876
450,Mandal Office,17.50876,78.30069
387,Rc Puram,17.51371,78.28783
388,Icrisat,17.51885,78.27843
390,patancheru,17.52849,78.26405
923,RamNagar Gundu,17.40802,78.51165
1828,Shivam,17.40358,78.5148
928,Amberpet,17.392,78.51648
1700,Ali Cafe,17.38191,78.51842
1778,Sripuram Colony,17.37629,78.51476
1753,Musharam Bagh,17.37086,78.515
479,dwaraka nagar,17.35999,78.54447
2086,ntr nagar,17.3549,78.54579
480,lb nagar,17.34873,78.54901
2513,lb nagar ring road,17.34639,78.55151
2496,chintalakunta checkpost,17.34279,78.55681
481,panama garden,17.33848,78.56868
3856,Sahara Estate,17.34792,78.57182
1149,nalgonda x road,17.37286,78.49934
1121,government press,17.36812,78.50193
1742,jaihind hotel,17.35951,78.50467
1122,saidabad,17.35739,78.50546
1124,i s sadan,17.35205,78.50773
1123,champapet,17.34849,78.51608
1125,rtc colony,17.34622,78.52195
1126,green park colony,17.34539,78.52625
1127,karmanghat,17.34439,78.53304
1128,bairamalguda,17.34328,78.54124
1129,sagar x road,17.3405,78.54819
1131,hastinapuram north,17.32928,78.55437
3882,hastinapuram central,17.32839,78.55536
1132,hastinapuram south,17.32697,78.55655
1133,b n reddy nagar,17.32007,78.56075
1134,sagar complex,17.31271,78.5638
1135,gurramguda x road,17.30466,78.57091
1136,injapur,17.29882,78.58306
1150,turkayamjal x road,17.27232,78.58926
1138,raganna guda x road,17.26275,78.58639
1137,manneguda x road,17.25501,78.58581
1139,bonguluru x road,17.23139,78.58922
1140,koheda x road ,17.21795,78.60264
1141,mangalpally x road,17.21502,78.60562
1142,sri indu college,17.214,78.61135
1143,sheriguda,17.2085,78.61983
1145,ambedkar x road,17.19374,78.64625
1146,ibrahimpatnam old busstand,17.19726,78.65032
1147,ibrahimpatnam busstand,17.19117,78.64741
511,koti maternity hospital,17.38573,78.48671
506,ramkoti,17.39046,78.48596
363,ymca,17.39509,78.49008
366,NArayanaguda,17.39735,78.49202
367,chikkadapalli,17.40357,78.49524
1163,raja delux,17.41589,78.49845
1164,musheerabad police station,17.42011,78.50028
1165,kalpana,17.42124,78.49847
1166,praga tools,17.42358,78.49399
1167,kavadiguda,17.42467,78.49002
1178,ranigunj,17.43132,78.4881
826,james street,17.43541,78.48831
790,Paradise x road,17.4431,78.48618
854,Anand Theater,17.44332,78.48218
855,Police Line,17.44345,78.47596
791,Prakash Nagar,17.44394,78.47126
857,Shoppers Stop,17.44474,78.46559
792,ShyamLal,17.44398,78.46142
868,Begumpet Public School,17.44243,78.45904
1190,rj college,17.43514,78.45515
1063,Lalbungalow,17.43558,78.45208
1170,gurudwara,17.43593,78.44814
900,Mythrivanam,17.43752,78.44342
901,SR Nagar,17.44305,78.44067
902,ESI Hospital,17.44799,78.4378
903,Erragadda,17.4566,78.4336
1172,pr nagar,17.45644,78.42528
1173,mothi nagar,17.45429,78.42233
1175,borabanda,17.45409,78.41572
1651,Chengicherla depot,17.41968,78.6099
1652,Chengicherla Village,17.4331,78.60833
1654,KM Stone,17.44905,78.61133
1653,Cherlapally Village,17.46303,78.61129
1655,Ganesh Temple,17.4588,78.59532
1656,Hcl x Road,17.45552,78.58142
1657,ECIL Factory,17.46769,78.57367
1015,ecil x road,17.47235,78.5697
1028,Radhika,17.47763,78.56231
1029,A S Rao Nagar,17.48003,78.55683
1031,SainikPuri,17.48342,78.55002
1033,Neredmet X Road,17.48209,78.53736
2011,Old Ps,17.47393,78.53852
2012,Vinayaka Nagar,17.46904,78.53908
2013,Krupa complex,17.46514,78.53868
2014,Safilguda,17.46034,78.53559
2015,Anand Bagh,17.45804,78.53672
2016,Malkajgiri,17.44968,78.53658
2017,Sairam Theatre,17.44627,78.53569
2019,Mirzal Guda,17.44213,78.53189
2028,lala guda,17.43916,78.52867
2027,new bridge,17.43946,78.52546
2022,Railway Hospital,17.43645,78.52004
789,Patny,17.44295,78.49387
1215,saradhi studio,17.43702,78.44294
1216,state home,17.43633,78.43928
941,Yousufguda Basti,17.43648,78.43389
943,Krishna Nagar,17.43269,78.42651
940,Venkatagiri,17.43064,78.42103
1051,kothaguda,17.45821,78.36601
2023,Anjaiah nagar,17.45181,78.36373
771,Gachibowli X Road,17.43903,78.36302
912,Indira Nagar,17.44091,78.36
1557,IIIt,17.44469,78.35262
1255,infosys,17.43664,78.34735
1256,wipro circle,17.42547,78.34045
1259,capgemini,17.42108,78.33763
2024,financial district,17.42235,78.33825
1267,gachibowli pushpak,17.43993,78.3634
2025,anjaiah nagar,17.45263,78.36356
325,kothaguda x road,17.45886,78.367
489,satyam/jayabheri,17.45815,78.37094
328,madhapur nift,17.44389,78.38726
333,usha kiran,17.43014,78.41156
1218,srinagar x road,17.43023,78.42519
976,yousufguda checkpost,17.43685,78.42793
978,krishna kanth park,17.44134,78.4319
1057,ameerpet,17.4347,78.44873
2026,railway hospital,17.43652,78.51935
2029,mirzal guda,17.44226,78.53253
2030,sairam theatre,17.44605,78.53551
2031,malkajgiri,17.44986,78.53572
2033,anand bagh,17.45821,78.5366
2034,safilguda,17.46087,78.53543
2035,krupa complex,17.46521,78.53861
2036,vinayaka nagar,17.46935,78.53896
2037,old ps,17.47463,78.53812
2038,NEredmet x road,17.48216,78.53721
1011,sainikpuri,17.48364,78.54995
1012,rukmini puram,17.48159,78.55459
1013,a s rao nagar,17.47951,78.55832
1014,radhika,17.47753,78.56294
1265,waverock,17.41995,78.34762
1815,kamineni,17.35324,78.55563
994,alkapuri,17.36596,78.55697
1587,PAtny,17.4429,78.496
793,RJ College,17.43375,78.45587
867,Bluemoon Hotel,17.42906,78.45561
794,Panjagutta,17.42613,78.45083
406,Tv9/Masjeed,17.42646,78.43832
1047,Sagar Society,17.42501,78.43386
374,LV Prasad,17.42357,78.42773
327,Hitech City,17.4511,78.38132
2962,icici,17.42201,78.3383
3767,Infotech,17.41919,78.33645
1266,Waverock,17.4202,78.34743
415,Tcs,17.4459,78.37752
502,Raheja Mindspace,17.44161,78.37726
770,Telecom Nagar,17.43523,78.3676
313,jubilee hills checkpost,17.42626,78.41526
335,journalist colony,17.4212,78.41093
2092,asif nagar,17.39219,78.4477
2093,mallepally,17.38936,78.4549
2094,vijay nagar colony,17.39534,78.45438
2095,clock tower,17.43935,78.49494
814,keys high school,17.43775,78.50453
2032,r k nagar,17.45516,78.53529
1559,Kamala nagar,17.47094,78.56748
1016,S P Nagar,17.46537,78.56234
1281,Moulali unani dispensary,17.46252,78.56155
1017,LAXMI NAGAR,17.46003,78.56441
1018,Indira Nagar,17.45782,78.56497
1021,Play Ground,17.45316,78.56585
1333,NFC X Road,17.44852,78.57546
1334,Noma Function Hall,17.44691,78.57259
1335,Mallapur,17.44502,78.56741
1337,Janapriya,17.44217,78.56611
1338,Delhi Tubes,17.43815,78.55826
1339,Nacharam X Road,17.4331,78.55456
1341,NACHARAM VILLAGE,17.42862,78.55162
1384,hmt nagar,17.42393,78.54709
1027,ECIL X Road,17.47274,78.56946
2071,shenoy nursing home,17.44821,78.5089
2104,YMCa,17.44286,78.49887
1188,rtc x road,17.40736,78.49667
827,Paradise,17.44042,78.48796
498,Cr Foundation,17.47873,78.36152
416,Vbit,17.43415,78.38446
402,allwyn x road,17.49323,78.35189
403,hafeezpet ,17.4864,78.3581
499,cr foundation,17.47581,78.36326
456,kondapur,17.46529,78.3675
326,hitex kaman,17.45593,78.3776
1213,ParadisE,17.4404,78.48822
1203,James Street,17.43572,78.48872
1204,Ranigunj,17.42969,78.4883
1205,Kavadiguda,17.42505,78.48969
1206,Praga tools,17.42362,78.49463
1207,Kalpana,17.42141,78.49877
357,Kachiguda X Road,17.39057,78.48898
1211,Koti Maternity Hospital,17.38544,78.48727
3659,suchitra,17.49906,78.47715
3660,layola jr college,17.50274,78.4846
3661,layola acadamy,17.50497,78.48784
3662,bhel quarters,17.50596,78.4907
3663,pvr garden,17.50657,78.49459
3664,reliance,17.50661,78.49787
3665,father balaih colony,17.50818,78.50167
1449,indira gandhi statue,17.50891,78.5039
1451,Ambedkar,17.50613,78.50486
1455,Alwal Police station,17.50323,78.5114
1456,alwal,17.50157,78.51403
1457,lothkunta,17.4918,78.51282
1616,lal bazar,17.47862,78.51113
1458,thirumalagiri,17.47257,78.50997
1459,hanuman temple,17.46598,78.50526
1038,Karkhana,17.45873,78.50014
1442,padmarao nagar,17.42558,78.50682
1471,gandhi hospital,17.42378,78.50542
364,kachiguda x road,17.39298,78.48941
1445,Chilkalguda,17.43223,78.50566
1001,jbs,17.44949,78.49643
1003,karkhana,17.46043,78.50042
1444,Hanuman temple,17.46682,78.50582
1614,Thirumalagiri,17.47335,78.50995
1615,Lal bazar,17.47938,78.51081
1446,Lothkunta,17.49384,78.51244
1617,Alwal,17.50236,78.51402
1452,alwal police station,17.50307,78.51113
1448,old alwal,17.50646,78.50453
1450,Indira Gandhi Statue,17.50862,78.50381
3652,Father Balaih Colony,17.50762,78.50092
3653,Reliance,17.50647,78.49765
3654,Pvr Garden,17.5065,78.4942
3655,Bhel Quarters,17.50584,78.49061
3656,Layola Acadamy,17.50477,78.48761
3657,Layola Jr College,17.50249,78.48429
2121,Suchitra,17.4997,78.47712
1684,patny,17.44402,78.49571
1667,lakadawala,17.51328,78.52046
1668,pg college,17.51822,78.52139
1669,kowkur x road,17.52742,78.52281
1670,koteshwar temple,17.53497,78.52398
1671,c i s f,17.5428,78.5316
1659,Hakimpet Depot,17.54684,78.53541
1673,Risala Bazar,17.52845,78.51786
1674,Contonment Hospital,17.52168,78.51792
1675,Bolaram Bazar,17.51753,78.51666
1665,Lakadawala,17.51288,78.52037
1244,nampally,17.3962,78.47122
1239,gandhi bavan,17.38888,78.47121
1240,osmangunj,17.38036,78.47517
1242,afzalgunj,17.37377,78.47804
1243,CBS,17.37847,78.48182
1220,balkampet road,17.43901,78.44817
1221,balkampet temple,17.44713,78.44911
1222,sanath nagar,17.4545,78.4471
1763,Saroor Nagar,17.35263,78.53542
1790,Venkateswara Colony,17.35745,78.53614
1728,huda colony ,17.36253,78.53935
463,Fruit market,17.36824,78.53557
1758,musharam bagh,17.37118,78.51478
1780,sripuram colony,17.37623,78.51461
1703,ali cafe,17.3823,78.51813
1831,Syndicate Bank,17.39736,78.51211
1328,Vidya NAgar,17.40344,78.51078
921,VST,17.40406,78.50386
353,RTC X Road / Bus Bhavan,17.40566,78.49948
1708,bhatia bakery,17.4997,78.51005
1691,matha temple,17.4988,78.50773
1689,durga,17.49611,78.50694
1686,VenkaTApuram,17.49389,78.50552
1710,Durga,17.49638,78.50688
1690,Matha temple,17.49903,78.50763
1676,bolaram,17.51925,78.51626
1677,contonment hospital,17.52145,78.51738
1678,risala bazar,17.5287,78.51833
1679,water Tank ,17.5272,78.5225
1692,West Venkatapuram,17.49931,78.49936
1738,Mes Colony,17.49749,78.5046
1688,Durga,17.4962,78.50769
1783,iNdira nagar,17.49555,78.51093
1470,Padmarao Nagar,17.42558,78.50695
1310,vidya nagaR,17.4049,78.51213
1443,Gandhi Hospital,17.42498,78.50177
1694,INDira nagar,17.49549,78.51065
414,Hitech CitY,17.45077,78.38032
1078,jeedimetla depot ,17.52739,78.43978
1079,substation,17.52253,78.44376
1081,shapur nagar,17.51366,78.44741
1082,shapur x road,17.51025,78.44798
1085,HMT Busstop,17.50234,78.45077
1086,Chintal,17.49544,78.45234
1087,ganesh nagar,17.49111,78.45137
1088,idpl colony,17.48581,78.44992
833,Balanagar,17.46753,78.44443
835,Prashanth nagar,17.47368,78.42695
873,moosapet,17.47162,78.42642
874,bharat nagar,17.46707,78.42906
875,erragadda,17.453,78.43559
876,esi hospital,17.4461,78.4392
878,ameerpet,17.43162,78.448
879,nims hospital,17.42356,78.4544
880,erramanzil,17.41947,78.45689
881,khairatabad rto office,17.41629,78.45771
882,KhairatabaD,17.41242,78.4607
2202,CHilkalguda,17.4334,78.50695
2088,LB Nagar Ring Road,17.34733,78.55148
1461,Gandimaisamma,17.57543,78.42302
1235,bahadurpally x road,17.56,78.43104
1076,suraram x road,17.54058,78.43393
1073,jeedimetla,17.5267,78.44024
1350,IDPL Water Tank,17.48144,78.44911
846,balanagar,17.46724,78.44535
847,shobana,17.4637,78.4532
848,ferozguda,17.4628,78.46214
849,bowenpally,17.46395,78.47263
850,tad bund,17.45638,78.48384
1661,C I S F ,17.54257,78.53191
1662,Koteshwar Temple,17.5364,78.52423
1672,Water Tank,17.52716,78.52229
1799,Sagar ring road,17.34233,78.5461
1892,I S Sadan,17.35161,78.5074
1840,Midhani Depot,17.33961,78.50374
1887,Keshavagiri Post Office,17.32241,78.48016
1585,ParadiSe,17.44401,78.48728
829,Tad Bund,17.45634,78.48404
830,New Bowenpally,17.46287,78.47228
831,Ferozguda,17.46257,78.46217
832,Shobana,17.46367,78.4526
836,Kukatpally,17.48457,78.41178
837,KPHB Main Road,17.49404,78.40079
838,JNTU,17.49646,78.39417
839,Nizampet X road,17.49837,78.38941
840,Hydernagar,17.49927,78.38363
864,Miyapur Cross Road,17.49647,78.36228
863,Allwyn X Road,17.49382,78.34995
1250,Bala Nagar,17.46821,78.44617
1345,idpl water tank,17.48169,78.449
1464,Ganesh nagar,17.49085,78.45087
1465,Chintal,17.49562,78.452
1084,Shapur X Road,17.51158,78.44755
1083,Shapur Nagar,17.51588,78.44689
1080,Substation,17.52289,78.44329
1068,Jeedimetla,17.52685,78.43976
1077,Suraram X Road,17.54167,78.43373
1252,Bahadurpally x Road,17.56012,78.4308
1664,PG College,17.51789,78.5215
324,kondapur,17.46494,78.36432
1258,Shilparamam Pushpak,17.45386,78.3793
1576,cHaderghat,17.38076,78.49015
1354,Tourist Hotel,17.38989,78.49507
449,Barkathapura,17.39441,78.49884
1309,shankarmutt,17.40083,78.50807
1387,NCC,17.40703,78.51789
1312,ladies hostel,17.41192,78.52203
1314,arts college ,17.41931,78.52721
1573,tarnaka,17.42669,78.53049
1389,hmt nagar,17.42417,78.54702
1390,nacharam village,17.42904,78.5515
1391,nacharam x road,17.43283,78.55421
1392,delhi tubes,17.43776,78.55666
1394,mallapur x road,17.44575,78.56755
1395,noma function hall,17.44722,78.57166
1396,nfc x road,17.44856,78.57517
1397,krishna nagar,17.45079,78.56983
1291,h b play ground,17.45319,78.56584
1022,mangapuram,17.45549,78.56567
1023,indira nagar,17.45808,78.56481
1024,laXMI NAGAR,17.46015,78.56403
1292,moulali unani dispensary,17.46317,78.56111
1025,s p nagar,17.466,78.56231
1026,Kamala Nagar,17.47066,78.56676
1433,kushaiguda,17.48153,78.57598
2178,Nagarjuna nagar,17.48018,78.58178
1946,Chakri Colony,17.47928,78.58539
2150,Vijaya Hospital,17.48238,78.59471
2151,Nagaram,17.48788,78.60086
2156,Rampally X Road,17.49368,78.60572
2172,satyanarayana garden,17.48893,78.61293
2158,Rtc Colony,17.47964,78.62324
2170,r l nagar,17.478,78.62584
2160,Rampally  Village,17.4672,78.64193
1246,Afzalgunj,17.37373,78.47658
1247,Osmangunj,17.38005,78.47501
1635,mozamjahi market,17.38059,78.47527
1248,Gandhi bavan ,17.38806,78.47153
1344,shadan college,17.40897,78.46044
896,Khairatabad,17.4146,78.45837
897,Erramanzil,17.42037,78.45603
898,NIMS Hospital,17.42308,78.45439
899,Ameerpet,17.43181,78.44748
904,Bharat Nagar,17.46707,78.4287
905,Moosapet,17.47027,78.42707
845,prashanth nagar,17.47469,78.42555
1463,IDPL Colony,17.48743,78.45009
1987,ag colony,17.44946,78.43059
508,baghlingampally,17.39699,78.49687
1989,peerzadiguda,17.402,78.58198
1993,boduppal x road,17.40488,78.58703
1995,uppal depot,17.40576,78.58937
1996,canara nagar,17.40748,78.59497
1980,medipallY,17.41013,78.60322
2000,rtc colony ,17.42004,78.60671
1640,sriram nagar,17.44919,78.42302
1641,karmika nagar,17.44448,78.42412
1642,rahmath nagar,17.43996,78.42415
2058,khairatabad,17.41414,78.45934
2002,prasad IMAX,17.41447,78.46743
2003,ntr garden,17.41259,78.4712
2059,secretariaT,17.40871,78.47239
1969,chengicherla village,17.43325,78.60866
1974,RTC Colony,17.41992,78.60705
1979,MEdipally,17.40962,78.60266
1981,CANARA NAGAR,17.40732,78.59554
1982,Uppal Depot,17.40457,78.58954
1983,Boduppal X Road,17.40459,78.58671
1984,Peerzadiguda,17.40145,78.58194
944,Uppal Bus Stop,17.40138,78.57125
945,Uppal Gandhi Statue,17.40135,78.56536
946,Uppal X Road,17.40117,78.55783
947,Modern Bakery,17.40114,78.54972
948,Church,17.40084,78.54331
949,Ramanthapur Public School,17.39957,78.53813
950,Ramanthapur Colony,17.39732,78.53193
951,polytechnic college,17.39536,78.527
952,Irani Hotel,17.39333,78.52213
954,Amberpet Gandhi Statue,17.39246,78.51947
889,6 Number,17.3918,78.51082
1843,syndicate bank,17.39853,78.51239
1841,prashanth nagar,17.40036,78.5132
1847,shivam,17.40441,78.51506
507,Baghlingampally,17.39718,78.49719
891,Narayanaguda,17.40034,78.4898
892,Himayat Nagar,17.40182,78.48415
893,Liberty,17.4071,78.47628
1986,AG Colony,17.4494,78.43042
1039,Vikrampuri,17.45577,78.49862
1060,MYthrivanam,17.43718,78.44242
4005,prashanth nagar,17.4002,78.51338
1787,venkateswara colony,17.3574,78.53624
4103,RethiFile busstation,17.43471,78.50484
1725,Huda Colony,17.36263,78.53958
1762,Saroor Nagar,17.3525,78.53555
1223,Sanath nagar,17.45486,78.44776
1225,Dharam karam road,17.43848,78.45284
362,NarayanagudA,17.39883,78.49402
3894,Chowdariguda ,17.41675,78.64757
3896,chowdariguda village,17.41422,78.64968
3897,Phase 3,17.41471,78.64446
3898,Sai baba Temple,17.41499,78.64487
3899,Narapally,17.41755,78.62973
1975,CPRI,17.41299,78.61529
1019,MANGAPURAM,17.4553,78.56599
1382,krishna nagar,17.45092,78.56991
1324,Arts College,17.41907,78.52733
1325,Ladies Hostel,17.41185,78.52214
764,Tolichowki,17.39893,78.41554
1232,sai baba temple,17.43433,78.4844
1233,kims hospital,17.43761,78.48143
1234,minister road,17.4408,78.47895
1476,vidya nagar,17.40467,78.51032
1477,ramnagar gundu,17.40779,78.51327
1472,ladies hostel,17.41392,78.52141
1473,manikeshvari nagar,17.42084,78.52453
1289,tarnaka,17.42769,78.53173
1315,white house,17.43105,78.53524
1290,lalapet,17.4375,78.54388
1316,ram theatre,17.43505,78.54147
1317,industrial estate,17.45299,78.55355
1478,zts,17.45574,78.55524
1319,carbide,17.45431,78.56043
3969,BandlagudA,17.50145,78.62213
3892,Rajiv Gruhakalpa,17.51773,78.6007
1318,ZTC,17.45585,78.55622
1282,H B Play Ground,17.4524,78.56513
1320,Carbide,17.45396,78.56052
1321,ZTS,17.45545,78.55545
1322,Industrial Estate,17.45002,78.55202
1283,Lalapet,17.43718,78.54416
1564,White House,17.43047,78.53489
1284,Tarnaka,17.42756,78.53202
1386,ncc,17.40611,78.51696
1970,ecil factory,17.46703,78.57415
1971,hcl x road,17.4557,78.58201
1973,cherlapally village,17.46306,78.61161
1605,panjagutta colony,17.4294,78.45069
2154,rk mattum,17.41162,78.48223
2155,ntr stadium,17.41073,78.4852
2482,ashok nagar,17.40866,78.4911
2481,sudarshan,17.40767,78.49406
1985,Polytechnic College,17.39551,78.52682
1997,cpri,17.41321,78.6152
3900,narapally,17.41773,78.62972
3895,Chowdariguda Village,17.4142,78.6494
423,shilparamam,17.45171,78.38131
1964,km stone,17.44897,78.61163
1393,janapriya,17.44124,78.56449
1245,ramnagar e seva ,17.40913,78.50877
1253,ramnagar sbh,17.40889,78.50642
372,Care Hospital,17.41321,78.45014
510,Water Tank ,17.419,78.44786
3779,AShok nagar,17.44994,78.58042
4010,cherlapally phase 1,17.46006,78.58539
1972,ganesh temple,17.45915,78.59517
807,bluemoon hotel,17.4307,78.45588
1474,Manikeshvari Nagar,17.42047,78.52466
1475,LAdies Hostel,17.41365,78.52144
1566,RAmnagar Gundu,17.40743,78.51332
1567,Vidya Nagar,17.40361,78.51051
1340,kachiguda station,17.39041,78.49908
2159,R L Nagar,17.478,78.6259
2157,Satyanarayana Garden,17.48843,78.61293
2173,rampally x road,17.49361,78.60562
417,vbit,17.43335,78.38527
418,tcs,17.4459,78.37726
504,hitech citY,17.44958,78.37922
337,mla colony,17.41449,78.42491
500,acb office,17.41298,78.42912
338,durga enclave/V R Building,17.41208,78.43217
339,kaman,17.40952,78.43805
340,pension office,17.4077,78.4512
341,masab tank,17.40415,78.45224
3865,Dammaiguda,17.50191,78.58917
2174,nagaram,17.48811,78.60106
2175,vijaya hospital,17.48222,78.59477
2176,chakripuram,17.47924,78.58538
2177,nagarjuna colony,17.47993,78.58191
2047,Kushaiguda,17.48122,78.57582
441,Lb Nagar Ring road,17.34724,78.54985
443,Ntr Nagar,17.35576,78.54536
444,Dwaraka Nagar,17.36266,78.54357
445,Kothapet,17.36703,78.54058
2446,Chaitanyapuri,17.36829,78.53228
1598,Panjagutta colony,17.42875,78.45082
1069,Rajiv Gandhi Nagar,17.53417,78.4353
1231,gandimaisamma x road,17.57462,78.4235
1347,apurupa colony,17.53073,78.44937
1346,sr naik nagar,17.53209,78.44453
2018,Sairam Theatre,17.44627,78.53569
2020,Lala Guda,17.43906,78.52893
2021,New Bridge,17.43931,78.52565
795,banjara hills Road No 7,17.41811,78.44891
407,care hospital,17.41353,78.45047
1939,Chinna Cherlapally,17.47085,78.60806
1942,Surana,17.47109,78.60083
1944,Cherlapally Water tank,17.47118,78.59696
1945,Cherlapally Jail,17.47315,78.58924
491,vengalrao park road 1,17.42266,78.44959
493,Vengalrao Park Road 1,17.42267,78.44934
1948,cherlapally jail,17.47209,78.58994
1952,cherlapally water tank,17.47144,78.59718
1954,surana,17.47132,78.60116
1956,chinna cherlapally,17.47075,78.60884
371,Public gardens,17.39643,78.47094
766,Brindavan Colony,17.40284,78.41009
767,Sheikpetnala,17.4068,78.40265
765,Darga,17.4131,78.3946
769,Khajaguda X road,17.42285,78.38156
1262,continental hospital,17.41835,78.33965
1268,honeywell,17.41868,78.34352
1009,neredmet x road,17.4823,78.53714
1805,Chandrayangutta x Road,17.32719,78.4752
1715,falaknuma station,17.33036,78.47034
1851,engine bowli,17.33639,78.46793
1705,aliyabad,17.34431,78.46987
1756,sayed ali chaputra,17.3476,78.47057
1871,lal dharwaza mode,17.35152,78.47258
1744,shah-ali banda x road,17.35473,78.47284
1376,Kilwat,17.36046,78.47129
1377,Moosabowli,17.36449,78.46669
1438,High court,17.3706,78.47623
1264,honeywell,17.41841,78.34378
3780,ashok Nagar,17.44966,78.58042
1151,KPHB Temple Bus Stop,17.48769,78.39544
2442,maharastra bank,17.49214,78.39744
843,KPHB main road,17.49447,78.40068
844,kukatpally,17.48346,78.4132
399,chanda nagar,17.49516,78.32285
400,gangaram ,17.49529,78.33217
401,deepthisri Nagar/ madinaguda,17.49529,78.34075
459,allwyn x road,17.49451,78.35235
391,icrisat,17.51882,78.27885
392,rc puram,17.51377,78.28831
454,mandal office,17.50922,78.30033
455,AShok nagar,17.50482,78.30836
453,jyothi nagar,17.50233,78.31185
2483,MIYAPUR DEPOT1,17.51273,78.36074
1030,Rukmini Puram,17.48142,78.55454
3999,SAINATHAPURAM,17.47562,78.55191
4002,OLD SAFILGUDA,17.46934,78.54934
3846,Secunderabad Gurudwara,17.43602,78.50027
1200,Dundigal,17.607,78.41631
1229,d pochampally,17.59132,78.41829
3560,hayat nagar,17.32697,78.60422
3558,RTC Colony,17.3281,78.59922
3017,Hyt Depot X Road,17.32999,78.59391
428,Bhagyalatha,17.33293,78.58887
3035,High court colony,17.33465,78.58526
429,Autonagar,17.33605,78.5793
430,Sushma,17.3367,78.57378
438,Panama Garden,17.33783,78.56957
440,Chintalakunta Checkpost  ,17.3427,78.55644
3811,shivarampally x road,17.32674,78.42525
3821,Attapur x Road,17.3705,78.42902
425,hitechcity Railway Station,17.47008,78.38386
1895,KPHB 4TH PHASE,17.47232,78.38772
1909,malaysian Township,17.48012,78.38966
1906,JNTU,17.49523,78.39443
1907,JNTu,17.49457,78.39445
1899,Malaysian Township,17.47979,78.39008
424,Hitechcity Railway Station,17.47035,78.38397
2248,Laldabha,17.3419,78.4233
984,weaker section colony,17.33253,78.42695
3810,Shivarampally x road,17.32684,78.42567
985,aramghar,17.32216,78.43181
986,mailardev pally,17.31467,78.44471
3802,palle cheruvu,17.31551,78.45778
3803,moghal college,17.31463,78.45942
987,bAndlaguda,17.31705,78.46618
988,hashamabad,17.32553,78.47306
1812,chandrayanagutta,17.32809,78.48001
3804,dlrl,17.32924,78.48269
989,pool bagh,17.33047,78.48593
1810,baba nagar ,17.33161,78.48938
1849,DRDL,17.33716,78.49683
990,pisalbanda,17.34106,78.50262
1818,owaisi hospital,17.34355,78.50673
991,champapet x road,17.34258,78.51617
3757,Manda mallamma,17.33971,78.52426
993,sagar ring road,17.34285,78.54685
3034,chintalakunta,17.34095,78.5625
3002,sushma theatre,17.33677,78.57473
3003,autonagar,17.33626,78.57887
3004,high court colony,17.33497,78.58535
3005,baghya latha,17.33271,78.5897
3006,hyt depot x road,17.33013,78.5943
3016,Hyt Depot,17.32643,78.59253
1293,Jagadgiri Gutta,17.50216,78.42612
1294,allwyn phase 1,17.50193,78.41888
1296,sainagar,17.50033,78.416
1297,vadapally,17.49365,78.41062
1298,vivekananda nagar,17.49067,78.40769
914,IIIT,17.44542,78.35207
772,NDDC Stadium,17.45691,78.33963
773,Masjid banda,17.4601,78.33726
774,HCU Main gate,17.46198,78.33535
433,Hcu Depot,17.46835,78.33102
775,Alind,17.47653,78.32471
907,Lingampally Railway Station,17.48365,78.32032
777,Lingampally,17.49436,78.3158
3014,Vishnu Theatre,17.33939,78.56613
439,Chintalakunta,17.34073,78.56236
3557,rtc Colony,17.32833,78.59962
3559,Hayat Nagar,17.32717,78.60427
1301,Sumithra,17.4897,78.40812
1303,Vivekananda Nagar,17.49102,78.40776
1305,V V Apartments,17.49603,78.41297
1306,Sainagar,17.5004,78.41606
1308,Allwyn Phase 1,17.50201,78.41895
458,Miyapur,17.49574,78.35783
460,miyapur,17.49599,78.35819
865,miyapur cross road,17.49676,78.36197
862,hydernagar,17.49954,78.38332
842,nizampet x road,17.49845,78.39123
841,jntu,17.49593,78.39727
2497,Ganesh temple,17.33299,78.56943
3022,vanasthalipuram complex,17.33086,78.57291
1171,rythu bazar,17.33071,78.57528
3029,Kamala Nagar,17.32986,78.57894
3028,Bhulakshmi Nagar,17.32924,78.58101
3021,Subadra Nagar,17.32881,78.58348
3019,Shanthi Nagar,17.32835,78.5876
3018,Baghya Latha,17.33246,78.58921
3020,Sharada Nagar,17.32819,78.58535
3010,Rythu Bazar,17.33039,78.57514
3012,Vanasthalipuram Complex,17.33069,78.57276
2498,ganesh temple,17.33132,78.56911
3011,Red Tank,17.32907,78.56875
2999,GOVERNMENT HOSPITAL,17.32919,78.56585
437,ngos Colony,17.32472,78.56652
436,Ngos colony,17.32476,78.5662
3000,government hospital,17.32942,78.56563
3001,red tank,17.32938,78.5688
1130,panama godown,17.33294,78.55287
2998,Skd Nagar,17.32121,78.56533
3007,Vaidehi Nagar,17.32125,78.56956
3008,Gouthami Nagar,17.32166,78.5725
3009,Andhra Kesari Nagar,17.32749,78.57485
3013,Rythu Bazar,17.33039,78.57514
1202,PR Nagar,17.45648,78.4256
1633,Kabir Nagar,17.4568,78.42247
1201,Mothi nagar,17.45411,78.42233
1604,bala nagar,17.46734,78.44616
4001,old safilguda,17.46923,78.5489
4000,sainathapuram,17.47603,78.55178
1197,Gandimaisamma X Road,17.57533,78.42307
1254,D Pochampally,17.59143,78.41807
1650,Kukatpally Depot,17.47323,78.42536
2084,SECUNDERABAD,17.43631,78.49999
1631,minerva,17.44111,78.49239
2473,Darul Shifa,17.37429,78.48382
3727,HIMMATHPURA,17.35537,78.47027
1704,Aliyabad,17.34345,78.46964
1809,Falaknuma Bus Station,17.33114,78.47015
1620,AFZalgunj,17.37341,78.4759
828,Minerva,17.44103,78.49304
1348,sanath nagar police station,17.45661,78.44202
1372,darul shifa,17.37279,78.48272
3546,Purana Hawali,17.36777,78.48134
1902,chadowki masjid,17.36282,78.48019
1903,bibi bazar,17.35822,78.47932
1373,charminar,17.35919,78.47386
1743,Shah-Ali Banda X Road,17.35388,78.47306
3743,Sayed Ali Chaputra,17.34734,78.47061
1853,Engine Bowli,17.33634,78.46831
1807,Chandrayangutta X Road,17.32698,78.4769
890,Tilak Nagar,17.39416,78.50756
1893,BArkathapura,17.39454,78.49849
2447,kalavari temple,17.49667,78.37196
2065,Hanumanpet,17.44565,78.52629
2064,Mallikarjuna Nagar,17.44933,78.52752
2060,Shenoy Nursing Home,17.44753,78.50858
2100,SangeetH,17.44131,78.50531
1869,Lab Quarters,17.32971,78.50071
1719,Play Ground,17.33289,78.49958
1879,Marketing Complex,17.33475,78.50123
1767,Yadagiri Theatre,17.34685,78.50808
1740,saidabad apseb,17.36382,78.50204
1711,apseb office,17.36386,78.50248
1768,yadagiri theatre,17.34655,78.50837
1880,marketing complex,17.33482,78.50124
1721,play ground,17.33299,78.49965
3496,Gitam University,17.5604,78.16478
3500,rudraram x road,17.56394,78.16607
3501,lakdaram,17.55525,78.18911
3502,isnapur,17.547,78.21263
3503,muthangi,17.54206,78.22869
3504,pocharam x road,17.53712,78.24313
1632,kabir nagar,17.45701,78.42249
3491,Muthangi,17.54248,78.22649
3492,Isnapur,17.54689,78.21241
3493,Mile Stone,17.55257,78.19883
3494,Lakdaram,17.55504,78.18901
3495,Rudraram X Road,17.56379,78.16479
2066,JYOTHI NAGAR,17.44376,78.5251
2067,Tukaram Gate,17.44112,78.52239
796,Ranigunj Depot,17.43245,78.48652
4008,SAFILGUDA ,17.46225,78.53253
3730,FAROOQ NAGAR BUS STATION,17.3301,78.47073
1579,Ramkoti,17.39005,78.48536
361,Chikkadapalli,17.40201,78.49511
3725,farooq nagar bus station,17.32987,78.47018
4025,Bowenpally police station,17.46492,78.47268
2116,bowenpally checkpost,17.47616,78.47369
2118,dairy farm,17.48731,78.47332
2122,suchitra,17.50004,78.47705
2125,jeedimetla village,17.50882,78.47927
4027,Angadipeta,17.51082,78.47932
2136,balaji hospital,17.51878,78.48173
2137,prajay,17.53111,78.48766
2127,dulapally x road,17.5407,78.49089
4031,kompally,17.54422,78.49159
4030,kompally bridge,17.56499,78.49336
2128,Gundla pochampally,17.56913,78.49365
4029,damber factory,17.58028,78.49068
2129,kandlakoya,17.59163,78.49287
2130,cmr college,17.60453,78.49056
2131,ida medchal,17.61205,78.4871
2132,checkpost,17.61768,78.48569
2107,Medchal Depot,17.63382,78.48593
3809,Medchal,17.63029,78.4853
2108,Ida Medchal,17.61189,78.48739
2109,Cmr College,17.60318,78.49133
2110,Kiloskar,17.59591,78.49277
2111,Kandlakoya,17.59145,78.49302
2112,Damber Factory,17.58046,78.49096
2138,gundla pochampally,17.56893,78.49391
2113,Kompally Bridge,17.56526,78.49372
2114,Kompally,17.54437,78.49195
2115,Dulapally x road,17.54004,78.4909
2117,Prajay,17.5309,78.48774
2119,Balaji Hospital,17.51853,78.48181
4028,angadipeta,17.51105,78.47968
2120,Jeedimetla Village,17.50806,78.47943
2123,Dairy Farm,17.4869,78.47347
2124,B Pally CheckPost,17.47583,78.47384
1749,Balapur X Road,17.31894,78.5199
4014,shivaji chowk,17.3182,78.51836
4016,Balapur villege,17.31771,78.52748
4015,ganesh chowk,17.31731,78.51796
1789,Champapet X road,17.34831,78.5152
369,MSRD2,17.40858,78.50354
4026,bowenpally police station,17.46492,78.47285
4017,Toopran,17.8467,78.4767
4019,Chegunta,17.97094,78.46225
4022,narsingi,18.04762,78.4284
4024,ramayanapet,18.11638,78.43007
1565,RTC Hospital,17.42596,78.53013
4023,Ramayanapet,18.11637,78.42987
4021,Narsingi,18.04767,78.4289
4020,chegunta,17.97089,78.46218
4018,toopran,17.84635,78.47765
1786,Airport,17.25164,78.42977
756,Shamshabad,17.26231,78.38784
1803,Satamrai,17.28273,78.41124
1804,gaganpahad,17.29717,78.41825
1806,ag college,17.31442,78.42469
1425,Aramghar X Road,17.32199,78.43222
1426,Shivarampally X Road,17.32827,78.43532
1429,Hasan Nagar X Road,17.3351,78.44375
1430,Mir alam Tank,17.33691,78.44936
1432,Tad Bun,17.34519,78.45067
1434,Zoo park,17.35078,78.45232
1435,Bahadurpura,17.35572,78.45432
1436,Puranapool,17.36656,78.45816
1437,City College,17.36809,78.468
365,NarayanaGuda bloodbank,17.39421,78.48971
1773,Aramghar X road,17.32125,78.43169
1775,AG college,17.31386,78.42467
1777,Gaganpahad,17.29699,78.41853
1779,Satamrai,17.28252,78.41142
2252,shamshabad market,17.26438,78.39117
1800,airport ,17.24164,78.42974
4035,shivareddy nagar,17.33788,78.619
4037,Mother Dairy,17.33592,78.614
4033,Kuntloor,17.34073,78.62589
3562,Word&Deed School,17.32117,78.61359
3563,Laxmareddy Palem,17.32068,78.62599
3564,Pedda Amberpet,17.32165,78.63859
4044,upparguda x road,17.29459,78.64845
4045,Koheda,17.28292,78.64247
4041,Mile stone,17.27889,78.65423
4047,Umarkhan guda,17.27149,78.66976
4040,sanghi nagar,17.27066,78.67718
4048,umarkhan guda,17.27138,78.66974
4042,milestone,17.27847,78.65442
4046,koheda,17.28276,78.64254
4043,Upparguda X Road,17.29472,78.64827
3597,pedda amberpet,17.32154,78.63823
3598,laxmareddy palem,17.32052,78.62657
3599,word&deed school,17.32083,78.61367
3024,andhra kesari nagar,17.32728,78.57491
3025,gouthami nagar,17.32168,78.57266
3026,vaidehi nagar,17.32103,78.56938
3027,skd nagar,17.32132,78.56508
4049,Sai Nagar Colony,17.31883,78.59446
1352,Shadan College,17.40876,78.46061
1750,balapur x road,17.31936,78.51905
1844,midhani township,17.32499,78.51422
1782,bdl,17.33343,78.50904
1867,Lab Quarters Gate,17.3374,78.5056
1866,Lab Quarters Gate,17.33767,78.50564
1781,Bdl,17.33237,78.51022
1842,Midhani Township,17.32486,78.51455
1362,Padmasali Colony,17.42069,78.4923
1363,PNT Colony,17.41878,78.49136
1364,Gandhi Nagar,17.41628,78.49063
1365,Canara Bank,17.4124,78.48871
1366,Ashok Nagar X Road,17.40951,78.4895
1367,Himayat Nagar,17.40123,78.48895
1330,Telugu Academy,17.39961,78.48679
1588,OLD MLA QUARTERS,17.39759,78.48381
1591,king koti hospital,17.39362,78.48207
1592,Abids ,17.39178,78.47666
2087,amberpet,17.39123,78.51613
1327,SVES High School,17.40478,78.51234
922,Ramnagar X Road,17.4105,78.50698
1295,kalanjali,17.40101,78.4713
1300,ayakar bhavan,17.40133,78.47398
1302,hyderguda,17.40046,78.47802
1304,old MLA quarters,17.39875,78.48173
1307,telugu academy,17.39965,78.48659
1311,engineering college,17.40713,78.51794
1313,law college,17.41524,78.52526
1593,Institute of Foreign languages,17.42382,78.52737
1734,Badangpet ,17.30497,78.52531
1765,udyog nagar,17.31269,78.52297
1875,lenin nagar,17.31585,78.5226
1873,Lenin Nagar,17.31574,78.52278
1764,Udyog Nagar,17.31251,78.52315
462,Miyapur2 busdepot,17.51204,78.36096
3840,Nanal Nagar,17.39567,78.42769
1152,lunger house,17.37825,78.42094
3829,Bapu Nagar,17.37374,78.41709
1154,t k bridge,17.37096,78.40469
3832,SAI RAMNAGAR,17.36786,78.40118
1155,sun city,17.36482,78.39577
1156,bandlaguda X road,17.35933,78.38764
3834,peeram cheruvu,17.35447,78.37893
1157,kali mandir,17.35211,78.37652
1912,Appa,17.35083,78.36328
1158,golden form,17.35085,78.35804
1159,gandipet x road,17.35291,78.33073
1160,aziz nagar x road,17.34402,78.32465
1177,Himayat Nagar x road,17.33891,78.31182
3782,himayat nagar village,17.34243,78.30876
1176,Hostel,17.34377,78.30195
3807,Balaji temple,17.35732,78.30034
494,Andhrajyothi,17.42715,78.44476
375,Annapurna,17.42355,78.42464
1323,Ram Theatre,17.43482,78.5419
1594,LAW COLLEGE,17.41482,78.52473
1326,Engineering college,17.40778,78.51888
1331,Old MLA Quarters,17.398,78.48252
1332,Hyderguda,17.40014,78.47815
805,Banjara hills road no 7,17.41646,78.44881
1896,KPHB 7TH PHASE,17.47402,78.38806
1897,telephone exchange,17.48333,78.39334
1900,kPHB 7TH PHASE,17.47508,78.38899
1901,kphb 4th phase,17.47234,78.38824
1044,sagar society,17.42523,78.4337
1002,vikrampuri,17.45507,78.49818
1004,thirumalagiri x road,17.4713,78.5099
1005,officers mess,17.47481,78.52034
1007,r k purAM,17.47659,78.52585
1008,g k colony,17.48055,78.53365
1010,vayupuri,17.48357,78.54465
1032,Vayupuri,17.48334,78.54471
1034,G K Colony,17.48041,78.53389
1035,R K Puram,17.47644,78.52626
1036,Officers Mess,17.4746,78.52036
1037,Thirumalagiri X Road,17.47118,78.51016
1261,Airport Pushpak,17.23674,78.42875
1263,airport pushpak,17.23694,78.43047
3600,Paryataka Bhavan,17.4342,78.45571
3869,NMDC COLONY,17.45668,78.5481
3871,EAST ANANDBAGH,17.45778,78.54383
3872,east anandbagh,17.45787,78.54388
3870,nmdc colony ,17.45677,78.54811
2073,swimming pool,17.45909,78.51575
3876,aoc gate,17.45716,78.50908
3877,LAXMI NAGAR,17.45599,78.50575
3878,laxmi nagar,17.45623,78.50586
3875,AOC GATE,17.45744,78.5094
2062,Swimming Pool,17.45933,78.51551
3806,Telephone colony,17.36804,78.54778
2146,b j bhavan,17.36543,78.54328
2089,Vijay nagar colony,17.39515,78.45509
2090,Mallepally,17.3893,78.45413
2091,Asif nagar,17.39017,78.45079
461,Miyapur x road,17.49782,78.36167
1342,new science,17.39571,78.48642
1343,basheerbagh,17.4018,78.47571
1599,shapur nagar rythu bazar,17.51757,78.44659
396,church,17.49898,78.30835
385,Keerthi Mahal,17.49666,78.29736
404,annapurna,17.4239,78.42443
834,IDPL,17.4713,78.43369
1353,Basheerbagh,17.40526,78.47692
1610,Kachiguda x road,17.39043,78.49144
1412,Gajularamaram,17.52482,78.42328
1606,usha mullapudi,17.52233,78.42982
1607,hal colony,17.52078,78.43167
1608,srinivas nagar,17.518,78.43614
1609,sanjay gandhi nagar,17.51548,78.43971
1611,balayya Hotel,17.51407,78.44209
1603,Shapur X Road,17.51095,78.4474
1601,Balayya Hotel,17.5141,78.44178
1602,Gandhi nagar,17.51533,78.43955
1428,Srinivas Nagar,17.51784,78.43602
1421,Hal colony,17.52051,78.43176
1416,Usha Mullapudi,17.52215,78.42959
1626,yashoda hospital,17.42423,78.45778
1624,Villa Meri College,17.42245,78.46252
1622,raj bhavan,17.42063,78.46244
1405,city college,17.36791,78.4679
1619,KHairatabad,17.41436,78.46017
1621,RAJ Bhavan,17.42,78.46206
1623,VILLA MERI COLLEGE,17.42288,78.46171
1625,Yashoda Hospital,17.4265,78.45719
1638,kalyan nagar,17.45102,78.42286
1648,andhra bank,17.4302,78.43998
1649,water tank,17.43021,78.44261
1636,shivaji park,17.3747,78.48165
1637,girls school,17.36774,78.48133
1375,Shah Ali banda,17.35519,78.47032
1643,Rahmath Nagar,17.43977,78.424
1644,Karmika Nagar,17.44429,78.42411
1645,Sriram Nagar,17.44904,78.42292
1646,Kalyan Nagar,17.45096,78.42268
1374,shah Ali banda,17.35534,78.4702
1639,Laad Bazaar,17.36228,78.46996
1378,City College,17.36741,78.46844
768,Lidcap,17.4181,78.3884
358,Public gardens,17.39643,78.47094
1629,ag office,17.40582,78.46715
1833,Prashanth nagar,17.39731,78.51199
1707,Bhatia Bakery,17.5,78.50981
1771,Satya Petrol Bunk,17.4993,78.53555
1687,venkatapuram,17.49381,78.50564
435,Vanasthalipuram ,17.33527,78.56958
1752,Barkas,17.31714,78.48154
1835,Crpf Gate,17.3176,78.47976
1440,Nimboli Adda,17.38419,78.49365
4013,Shankarmutt,17.40065,78.50819
1870,Lal Darwaza,17.35039,78.47246
1714,Falaknuma Rly Bridge,17.32906,78.47283
3729,Chandrayangutta X road,17.327,78.47582
1823,Chandrayangutta Post Office,17.3226,78.48032
3781,Himayat nagar Village,17.34257,78.30895
1179,Aziz Nagar X Road,17.34429,78.32458
1180,Gandipet X Road,17.35322,78.33067
1181,Golden Form,17.35111,78.35807
1968,Appa,17.35119,78.3636
1182,Kali Mandir,17.35249,78.37688
3833,PEERAM CHERUVU,17.35455,78.37881
3995,KPHB Main ROad,17.49272,78.40225
1936,erragodalu,17.48905,78.44468
1937,giri nagar,17.49025,78.44216
1938,gandhi nagar,17.49131,78.43971
1940,rr nagar ,17.49402,78.43386
1943,markandaya hotel,17.49956,78.42977
1926,Markandaya Hotel,17.49971,78.42991
1927,Papi Reddy Nagar,17.49801,78.4315
1928,Rr Nagar kaman,17.49518,78.43207
1929,Rr Nagar ,17.49396,78.43443
1930,Gandhi Nagar,17.49156,78.43972
1931,Giri Nagar,17.49048,78.44206
1935,Erragodalu,17.48919,78.44484
1596,vst,17.40458,78.50146
1911,C R K Garden,17.35758,78.3844
1913,yenkepally,17.3377,78.31326
1990,Himayat sagar X Road,17.33888,78.31142
1914,JBIT,17.33168,78.29759
1915,Radha Soami Satsang,17.32984,78.28224
3842,mandal Office,17.33004,78.2777
1916,Moinabad,17.32789,78.27226
1917,Ayaan College,17.3144,78.25677
1918,Kanakamamidi X Road,17.31316,78.24871
1919,Shapur,17.31839,78.24145
1920,Kethi Reddy Pally X Road,17.31008,78.22871
1921,Appa Reddy Guda X Road,17.31022,78.22344
1922,Tholkatta X Road,17.3136,78.21661
1923,Mudimyal X Road,17.31958,78.20906
1924,Kandhawada X Road,17.30715,78.18239
1925,Malkapur X Road,17.31242,78.17237
1932,Kesharam X Road,17.30637,78.16076
1933,Chevella,17.31359,78.13922
1934,chevella,17.31385,78.13886
1950,kesharam x road,17.3065,78.1604
1951,malkapur x road,17.31267,78.17255
1953,kandhawada x road,17.30718,78.18268
1955,mudimyal x road,17.3198,78.2093
1957,tholkatta x road,17.3135,78.21694
1958,appa reddy guda x road,17.31026,78.22388
1959,kethi reddy pally x road,17.31045,78.22911
1960,shapur,17.31861,78.24193
1961,kanakamamidi x road,17.31328,78.24869
1963,ayaan college,17.31787,78.26052
1965,moinabad,17.32901,78.27324
3841,MAndal Office,17.33041,78.2781
1966,radha soami satsang,17.32997,78.28266
1967,jbit,17.33156,78.29709
1161,himayat sagar x road,17.3391,78.31149
1185,Hydersha kot,17.36832,78.40081
2008,Hanuman Nagar,17.41419,78.58524
2009,Boduppal Ambedkar statue,17.41829,78.58468
2010,Boduppal Colony,17.42207,78.58032
2039,Nagadevatha Temple,17.48908,78.51703
2040,Karm Hi Dharm,17.49623,78.5211
2041,Eme Centre,17.49851,78.52742
2042,Ammu Guda,17.49705,78.53254
2043,Bapuji Nagar,17.50214,78.53912
2044,Yapral,17.5047,78.54003
2045, Zphs,17.51371,78.55333
2046,Balaji Nagar,17.51312,78.56284
2048,balaji nagar,17.51271,78.56264
2049,zphs,17.51358,78.55281
2050,meghadri heights,17.51262,78.54211
3958,Hanuman Temple,17.51296,78.54026
2051,yapral,17.50466,78.54035
2052,bapuji nagar,17.50214,78.53936
2053,ammu guda,17.49677,78.53243
2054,eme centre,17.49825,78.52726
2055,karm hi dharm,17.49624,78.52142
2056,nagadevatha temple,17.48922,78.51726
2063,Gautam nagar,17.45532,78.52987
2068,Nanda Nagar,17.44296,78.51875
2069,Addagutta,17.44572,78.51446
2074,addagutta,17.4458,78.51462
2075,nanda nagar,17.44318,78.51897
2076,Tukaram gate,17.44142,78.52224
2077,jyothi nagar,17.44382,78.52491
2078,hanumanpet,17.44626,78.52638
2079,mallikarjuna nagar,17.44918,78.52724
2080,gautam nagar,17.453,78.5289
2134,PATANCHERU,17.52891,78.26403
2126,prajay,17.52589,78.48429
4011,Musheerabad X Road,17.42066,78.50012
1361,padmasali colony,17.42092,78.4925
1360,pnt colony,17.41865,78.49124
1359,gandhi nagar,17.41627,78.49057
1358,canara bank,17.41381,78.49018
2152,Ntr Stadium,17.41009,78.4865
2153,Rk Mattum,17.41138,78.4828
1357,ashok nagar x road,17.41074,78.48891
4012,musheerabad X road,17.42077,78.50095
1802,shamshabad ,17.26202,78.38818
1826,Airport,17.25164,78.42977
2161,Pogula Gudem,17.45643,78.65909
2162,Milestone,17.44371,78.67159
2163,ShivaReddy Guda,17.445,78.67385
2164,Ghatkesar,17.45203,78.68232
2166,shivareddy guda,17.44525,78.67442
2167,milestone,17.44337,78.67165
2168,pogula gudem,17.45619,78.65927
2169,rampally  village,17.46723,78.64154
2171,rtc colony,17.47958,78.62287
3794,Rajiv Gandhi Nagar,17.35997,78.55755
3879,N I N,17.43091,78.52453
3880,N I N,17.43135,78.52476
926,ramnagar x road,17.41073,78.50749
2251,Shamshabad Market,17.26524,78.39181
1299,sumithra,17.48917,78.40888
753,HCU Depot,17.46695,78.33042
3777,Gulmohar Park,17.47796,78.31997
2450,nddc Stadium,17.45677,78.34009
2456,Himayat Sagar Village,17.33888,78.36428
2457,himayat sagar,17.32453,78.37445
2460,valantari,17.32292,78.38063
2459,rajendra nagar,17.32199,78.40171
3827,Extension,17.33002,78.40908
2453,Budvel,17.33331,78.40949
2463,rajendranagar depot ,17.33508,78.41013
4096,NPPTI,17.34283,78.41443
2464,Chinthalmet,17.35211,78.4218
2466,Pahadi,17.35203,78.42935
2468,9 number X Road,17.35577,78.43393
2470,Kishanbagh,17.35906,78.44305
3826,police quarters,17.36796,78.46617
3825,Police Quarters,17.36769,78.46621
2455,Valantari,17.32289,78.37948
2472,Salarjung museum,17.37144,78.47833
3823,Kedia Biscuit Factory,17.30339,78.43348
2475,sriram colony,17.29317,78.44178
1422,Madhuban colony,17.30124,78.43835
3824,kedia biscuit factory,17.30359,78.43319
2478,Sudarshan Theater,17.40723,78.49504
2479,Ashok nagar,17.40893,78.49003
3976,Maruthi Nagar,17.47463,78.55553
3974,Bharat nagar,17.46953,78.55326
3972,RTC colony,17.46282,78.55135
1441,P F Office,17.39356,78.49789
3973,rtc colonY,17.46275,78.55119
3975,bharat Nagar,17.46985,78.5532
3977,maruthi Nagar,17.47474,78.55525
1898,Telephone Exchange,17.48324,78.39311
2001,NTR Garden,17.41412,78.4682
2448,Kalavari Temple,17.49633,78.37407
1856,Gayathri Nagar X Road,17.33767,78.53189
1106,Panama Godown,17.3328,78.55256
1162,Chilkur,17.35735,78.29988
2005,BODUPPAL COLONY,17.42213,78.58028
2007,HANUMAN NAGAR,17.41458,78.58526
2004,Prasad IMAX,17.41463,78.46548
2192,maheshwaram,17.13454,78.43347
2193,maheshwaram bavi,17.13699,78.43701
2194,siripuram gate,17.15363,78.44756
1878,maheshwaram gate,17.17902,78.47357
1865,imam guda,17.19268,78.47502
1759,thukku guda,17.2091,78.47672
2199,sardar nagar x road,17.23265,78.4732
1863,hardware park  sheep form,17.23924,78.47298
1702,airport gate,17.2495,78.47445
1739,rci gate,17.2643,78.47585
1811,pahadi shareef,17.27133,78.47419
1876,jail pally X road,17.28348,78.47163
1746,shaheen nagar,17.296,78.47748
1855,erra kunta,17.30543,78.47427
1770,barkas,17.31749,78.47948
1801,chandrayangutta PS,17.3244,78.47978
1371,liberty,17.40513,78.47688
1796,Chandrayangutta ps,17.3243,78.47999
1854,Erra Kunta,17.30495,78.47436
1745,Shaheen Nagar,17.29564,78.47782
2200,Wadi E Huda,17.28708,78.47232
1874,Jail Pally X Road,17.28305,78.47176
1814,Pahadi Shareef,17.27091,78.47424
1737,Rci Gate,17.26375,78.47603
1733,Raviryala Gate,17.2585,78.47552
1701,Airport Gate,17.24907,78.47456
1861,Hardware Park  Sheep form,17.23912,78.47316
2189,Sardar Nagar x Road,17.23274,78.4734
1757,Thukku Guda,17.20883,78.47678
1877,Maheshwaram Gate,17.17887,78.47383
2180,Siripuram Gate,17.15359,78.44789
2182,Maheshwaram Bavi,17.13663,78.43695
2183,Maheshwaram,17.13406,78.43328
457,miyapur X road,17.50305,78.36208
1582,Old Mla QUarters,17.39778,78.48348
1355,himayat nagar,17.40115,78.48868
1356,ashok nagar park,17.40662,78.48966
1575,Chaderghat,17.38173,78.49269
2493,kachiguda kamela,17.38804,78.50279
3771,Golnaka,17.39094,78.50752
1941,rr nagar kaman,17.49492,78.43181
851,paradise,17.4438,78.49078
858,Basavatarakam Cancer Hospital,17.4171,78.42874
866,TRS Bhavan,17.41409,78.42501
3490,Pocharam X Road,17.53667,78.24329
2486,Kachiguda Kamela,17.38775,78.50268
1236,Minister road,17.44095,78.47904
1238,KIMS Hospital,17.43692,78.48227
1241,Sai Baba temple,17.43444,78.48451
871,trs bhavan,17.41839,78.42924
2499,vanasthalipuram,17.32909,78.56808
474,miyapur busdepo,17.51191,78.36145
1187,Maktha,17.51949,78.35604
1189,Bollaram X Road,17.53444,78.35742
1191,Bachupally X Road,17.54079,78.36446
1192,Indira Nagar,17.54335,78.37269
1193,Reddy Labs,17.54354,78.37783
1194,V N R College,17.54198,78.38695
1195,Bowrampet X Road,17.54939,78.40357
1196,Mailstoon,17.56256,78.41324
3763,MLR College,17.59881,78.41615
998,Masjid Banda village,17.46568,78.34209
999,Chirec School,17.46212,78.35097
1000,Sriram Nagar Hospital,17.46125,78.35277
992,gayatri nagar,17.33775,78.53205
3778,gulmohar park,17.47807,78.32038
3732,Falaknuma Depot,17.33731,78.46707
3554,laldarwaja mode,17.35076,78.47264
3553,laldarwaja,17.34682,78.47518
3548,Chatrinaka,17.34366,78.47798
3549,Uppuguda,17.34003,78.47998
3758,LB Stadium,17.39892,78.47456
3744,Charminar,17.35909,78.47369
3551,uppuguda,17.33986,78.47963
3552,chatrinaka,17.34354,78.47787
3797,nagole x road,17.37586,78.55757
3819,arunodaya nagar,17.37351,78.56352
3784,bandlaguda,17.37153,78.56969
3798,AnAnd nagar,17.36959,78.5741
3817,INDRA PRASTA ,17.3678,78.57881
3788,matthuguda,17.36666,78.58168
3814,INDU aranya pallavi,17.36626,78.58421
3812,GSI gate,17.36597,78.58557
3796,Bandlaguda depot,17.3655,78.58858
3813,Gsi gate,17.3656,78.58584
3815,indu aranya pallavi,17.36592,78.58443
3816,indra prasta,17.36747,78.57858
3786,anand nagar,17.36951,78.5738
3818,ARUNODAYA NAGAR,17.37331,78.56312
2445,Kothapet x road,17.36728,78.53972
1251,Ramnagar SBH,17.40922,78.50647
1249,Ramnagar E Seva,17.40915,78.50884
1423,katedan,17.31213,78.43855
1427,NPA,17.33085,78.43746
1431,Water Filter,17.34104,78.45035